[{"name":"Tussoa","lng":15.365609889579023,"lat":3.221950919745561,"type":"city","description":"City · Wildemount · Population 15,110\n\nOnce a humble fishing village, Tussoa has blossomed into a respectable city but still boasts a relaxed way of life.\n\nOrganizations: Humble temples are found near and around the Lotoe Plaza. Family businesses work beneath the marquis and the local guild masters.","minZoom":null},{"name":"Port Damali","lng":15.146337252369017,"lat":1.206863139815494,"type":"city","description":"City · Wildemount · Population 82,110\n\nAs the unofficial capital of free trade outside the empire, Port Damali is a colorful confluence of cultures. Trade routes splinter from all sides of the city to ensure rapid transport of goods throughout Wildemount and beyond.","minZoom":null},{"name":"Palma Flora","lng":14.797721515235105,"lat":-0.354135988879642,"type":"town","description":"Settlement · Wildemount · Population 1,780\n\nA vacation destination for merchants from nearby ports, Palma Flora is famous for its annual shark hunting tournament.","minZoom":null},{"name":"Gwardan","lng":13.167887432074034,"lat":4.916178992568311,"type":"city","description":"City · Wildemount · Population 18,900\n\nKnown for its sprawling mines of precious metals and stones, Gwardan is a cultural center for elves. The city is renowned for its smiths that use a unique style of metalworking called \"steamcasting.\"","minZoom":null},{"name":"Vol'antim","lng":17.129228037468256,"lat":5.004998288653372,"type":"town","description":"Settlement · Wildemount · Population 3,890\n\nThe hidden cliffside sttlement of Vol'antim is nestled deep within the heart of the Cyrios Mountains. The community is home to aarakocra who live in relative seclusion.","minZoom":null},{"name":"Pride's Call","lng":17.61440344233295,"lat":6.479953724266101,"type":"city","description":"City · Wildemount · Population 16,090\n\nWithin the rolling hills of the Zemni Fields, the city of Pride's Call became the center of hilldwarf culture in Wildemount after the Calamity.","minZoom":null},{"name":"Kamordah","lng":18.942251918804782,"lat":5.170424227611813,"type":"city","description":"City · Wildemount · Population 7,440\n\nKamordah was built within the Bromkiln Hills by a collection of zealous followers of Desirat the Twilight Pheonix. Now the city boasts a carefully guarded industry for farming exotic herbs and fauna, made possible by geothermal activity.","minZoom":null},{"name":"Deastok","lng":18.92448805958778,"lat":3.72988626923205,"type":"city","description":"City · Wildemount · Population 10,090\n\nThe sister city of Kamordah, Deastok is appears unusually affluent for its size due to the presence of the Truscan family.","minZoom":null},{"name":"Felderwin","lng":24.239212689078272,"lat":4.287227352165782,"type":"town","description":"Settlement · Wildemount · Population 8,180\n\nAs the heart of halfling society in Wynandir, Felderwin is surrounded by fertile farmland that has been cultivated by the halfling community for over seven centuries.","minZoom":null},{"name":"Grimgolir","lng":26.214331785770263,"lat":8.370694489677058,"type":"city","description":"City · Wildemount · Population 19,090\n\nThe dwarven stronghold of Grimgolir sits at the core of an immense network of tunnels carved throughout the southern Dunrock Mountains. The tribulations of the city have shaped the ideology to which its dwarven citizens cling: to succeed is to struggle.","minZoom":null},{"name":"Hupperdook","lng":23.791785485049797,"lat":7.455855740000795,"type":"city","description":"City · Wildemount · Population 12,090\n\nThe smoke-stacked city of Hupperdook is the heart of industry in the empire, manufacturing technological marvels and large-scale weapons of war for the Dwendalian Empire.","minZoom":null},{"name":"Bladegarden","lng":25.83129857140333,"lat":6.425551905413865,"type":"city","description":"City · Wildemount · Population 9,910\n\nActing as both a training complex for the Righteous Brand and the core of orcish society in Western Wynandir, Bladegarden is a large military complex whose denizens are filled with a sense of honor and pride.","minZoom":null},{"name":"Ashguard Garrison","lng":26.433049302379697,"lat":5.828242139241687,"type":"town","description":"Fortress · Wildemount · Population 5,270\n\nA partner stronghold to the northern Rockguard Garrison, the Ashguard Garrison sits atop a steep mountain pass on the south side of the Brokenveil Bluffs.","minZoom":null},{"name":"Rockguard Garrison","lng":26.796514515577957,"lat":7.437450022589288,"type":"town","description":"Fortress · Wildemount · Population 6,800\n\nThe Rockguard Garrison was constructed in a joint effort between the Crown and Grimgolir as a symbol of politcal union. The fortress has held strong for generations without being breached.","minZoom":null},{"name":"Urzin","lng":27.708161321801164,"lat":6.929375892952586,"type":"town","description":"Settlement · Wildemount · Population 5,930\n\nA uniquely mobile settlement with its permanent dwellings built on the backs of dozens of horizonback tortoises, Urzin is home to swamp hunters, scouts, and trappers that know the Brokenveil Marsh like no one else.","minZoom":null},{"name":"Jigow","lng":29.630266401142443,"lat":7.340165137345973,"type":"city","description":"City · Wildemount · Population 13,210\n\nBy negotiations sparked by the Kryn Dynasty, the coastal city of Jigow was formed from competing orc and goblin clans. It rose to become an important source for fishing commerce for the dynasty.","minZoom":null},{"name":"Bazzoxan","lng":30.908154023566365,"lat":5.546015356426809,"type":"town","description":"Town · Wildemount · Population 2,610\n\nBazzoxan is perpetually locked in a stalemate between the Kryn Dynasty forces and the abyssal incursion from within the ruins of a temple to the Betrayer Gods.","minZoom":null},{"name":"New Haxon","lng":33.00650989357206,"lat":0.736450473420563,"type":"city","description":"City · Wildemount · Population 1,250\n\nThe stalwart outpost of New Haxon is garrisoned by agents of the Cerberus Assembly, along with a contingent of allied mercenaries from nearby Draconia.","minZoom":null},{"name":"Rotthold","lng":31.991749435801264,"lat":-0.660232957515478,"type":"city","description":"City · Wildemount · Population 8,800\n\nThe lawless harbor city of Rotthold has no official governing body. Many outlanders view the crime-ridden settlement as little more than a collection of degenerate slums.","minZoom":null},{"name":"Igrathad","lng":26.989557704412398,"lat":1.843916071482044,"type":"town","description":"The Many Hosts · Wildemount · Population 6,750\n\nOnce a battleground where regional factions feuded and warred over resources and glory, the Many Hosts of Igrathad is a scattered network of seven villages with robust communities of goblinkin, orcs and giants.","minZoom":null},{"name":"Charis","lng":27.749517806540045,"lat":-0.279420225551309,"type":"town","description":"Village · Wildemount · Population 950\n\nThe hidden hamlet of Charis was founded by an unlikely alliance between halflings and dragonborn. The village takes no value in gold or jewels, but instead, emphasize community and share equally.","minZoom":null},{"name":"Xarzith Kitril","lng":26.299542797951606,"lat":-1.803781394611139,"type":"city","description":"City · Wildemount · Population 9,110\n\nBuilt shortly after the fall of Draconia, the fortified stone city of Xarzith Kitril continues to grow in population and industry.","minZoom":null},{"name":"Trostenwald","lng":22.062862374694127,"lat":2.129803180756016,"type":"city","description":"City · Wildemount · Population 8,900\n\nOn the banks of the Ustaloch, the city of Trostenwald thrives on its booming brewing economy. The major brewing families hold a lot of power and are constantly competing with one another.","minZoom":null},{"name":"Alfield","lng":22.242721449266387,"lat":3.017996141606656,"type":"town","description":"Town · Wildemount · Population 3,410\n\nSupplemented by mines in the nearby hills, the small town of Alfield is often regarded as a stop on the route to more important business elsewhere.","minZoom":null},{"name":"Zadash","lng":21.755880682600157,"lat":4.636727812756983,"type":"city","description":"City · Wildemount · Population 89,210\n\nOnce the capital of the Julous Dominion, Zadash sits at the central crossroads of the southern region of the empire. The city is a bastion of law, civilization, and military might in the Marrow Valley.","minZoom":null},{"name":"Berleben","lng":22.308503240429452,"lat":6.266006775317412,"type":"town","description":"Town · Wildemount · Population 3,230\n\nThe marsh town of Berleben is nestled deep in the Labenda Swamp. Once promising economic boom in cultivated herbs, the town has floundered due to the instability of the marsh.","minZoom":null},{"name":"Druvenlode","lng":21.340372913102247,"lat":8.094574033468733,"type":"city","description":"City · Wildemount · Population 12,110\n\nEstablished in the early years following the Calamity, Druvenlode is the primary source of precious metal in Western Wynandir.","minZoom":null},{"name":"Rexxentrum","lng":21.407028610478307,"lat":8.861350996475858,"type":"city","description":"City · Wildemount · Population 205,200\n\nRexxentrum is the majestic capital of the Dwendalian Empire and the largest city in Wildemount. It is the cultural and military center of Western Wynandir.","minZoom":null},{"name":"Odessloe","lng":21.005080070381137,"lat":9.23756734996344,"type":"city","description":"City · Wildemount · Population 6,970\n\nAdjacent to the clear waters of the Erdeloch, Odessloe is a prominent fishing and logging town, supplying Rexxentrum and the surrounding townships with fresh fish and lumber.","minZoom":null},{"name":"Nogvurot","lng":23.35990165783649,"lat":9.130151513760568,"type":"city","description":"City · Wildemount · Population 15,270\n\nA major stop along the Glory Run Road heading eastward from the capital, Nogvurot hosts travelers making their way through the empire.","minZoom":null},{"name":"Shadycreek Run","lng":23.78734452024588,"lat":9.858469741658126,"type":"city","description":"City · Wildemount · Population 14,770\n\nOriginally comprised of a patchwork of makeshift, impoverished societies run by cruel slumlords, Shadycreek Run is now known as a hive of criminal activity and savage humanity given free reign.","minZoom":null},{"name":"Boroftkrah","lng":27.07282579449244,"lat":10.96475570844298,"type":"town","description":"Settlement · Wildemount · Population 3,060\n\nThe residents of the remote settlement of Boroftkrah value deeds done in service to the Boroftkrah orc clan. A council of elder warriors governs the town.","minZoom":null},{"name":"Palebank Village","lng":25.873765297343933,"lat":15.849816993121024,"type":"town","description":"Settlement · Wildemount · Population 690\n\nAlong the cold shore of the Frigid Depths, Palebank Village marks the first surviving Uthodurn outpost beyond the mountains.","minZoom":null},{"name":"Allowak's Sanctuary","lng":18.495842435878572,"lat":17.500375578701608,"type":"town","description":"Settlement · Wildemount · Population 532\n\nOops, all Yetis.","minZoom":null},{"name":"Balenpost","lng":19.508382411248217,"lat":16.123676489383225,"type":"town","description":"Outpost · Wildemount · Population 205\n\nThe inhabitants of Balenpost are dedicated to planning and executing expeditions to uncover Aeorian items on the island.","minZoom":null},{"name":"Syrinlya","lng":21.66373066291228,"lat":17.26870524807976,"type":"town","description":"Outpost · Wildemount · Population 182\n\nSyrinlya is a collection of yurts filled with mercenary explorers from Uthodurn looking to get rich.","minZoom":null},{"name":"Uthodurn","lng":26.685721695721522,"lat":14.036423031384516,"type":"city","description":"City · Wildemount · Population 26,240\n\nHidden among the icy peaks of the Flotket Alps, the dwarven stronghold of Uthodurn is a bastion of dwarven culture. The hardy folks of the city have endured the freezing temperatures and continuous snowfall for centuries.","minZoom":null},{"name":"Bysaes Tyl","lng":20.046479313363566,"lat":11.931405714168518,"type":"city","description":"City · Wildemount · Population 19,090\n\nThe rustic elven city of Bysaes Tyl is built synergistically within the tangled boreal forests.","minZoom":null},{"name":"Icehaven","lng":17.36117592839197,"lat":9.904845441827778,"type":"city","description":"City · Wildemount · Population 5,090\n\nIcehaven is home to the dozen or so ships in the region outfitted to wander the ice floes of the Frigid Depths. The city is a central trading post for hunters and adventurers who brave the Saltwallow Bog or the frozen north toward Eiselcross.","minZoom":null},{"name":"Yrrosa","lng":19.190113266943467,"lat":8.299436665090354,"type":"town","description":"Town · Wildemount · Population 3,220\n\nComprised of huble homesteads and numerous inns, the town of Yrrosa is a comfortable stop among the surrounding frigid fields.","minZoom":null},{"name":"Blumenthal","lng":21.783636712627157,"lat":8.444878262429627,"type":"town","description":"Town · Wildemount · Population 3,850\n\nA sprawling collection of rural farmsteads connected by administration buildings, Blumenthal is Rexxentrum's main source of produce and meat.","minZoom":null},{"name":"Othe","lng":17.857592525417324,"lat":2.263749155660293,"type":"city","description":"City · Wildemount · Population 8,320\n\nOthe is the smallest of the coastal Clovis Concord domains. Often left to their own devices, the denizens of Othe are quite reserved and are less hospitable to outsiders who don't go out of their way to engage with the locals.","minZoom":null},{"name":"Feolinn","lng":18.31205125705254,"lat":-0.081080260985214,"type":"city","description":"City · Wildemount · Population 12,700\n\nCommonly referred to as the Garden City for its rural aesthetic, Feolinn acts as a harbor for the plentiful fishing around the Mother's Sigh Reef.","minZoom":null},{"name":"Port Zoon","lng":18.489689849222653,"lat":-1.465180958310685,"type":"city","description":"City · Wildemount · Population 19,120\n\nPort Zoon is the industrial center of the Clovis Concord. What the city lacks in liveliness and splendor, it makes up for in manufacturing and cutting-edge science.","minZoom":null},{"name":"Nicodranas","lng":20.26903641412664,"lat":-2.205341759019484,"type":"city","description":"City · Wildemount · Population 31,900\n\nThe easternmost city of the Menagerie Coast, Nicodranas acts as an embassy state between the Clovis Concord and Dwendalian Empire.","minZoom":null},{"name":"Brokenbank","lng":13.831857930362128,"lat":-2.519910099320747,"type":"town","description":"Settlement · Wildemount · Population 1,520\n\nDespite its important role in the business of the coast, Brokenback lacks the strong cultural identity of the mainland city-states. The settlement is not recognized as an official city by the concord.","minZoom":null},{"name":"Darktow","lng":8.318400125882189,"lat":-5.077905826570404,"type":"town","description":"Town · Wildemount · Population 1,306\n\nThe eerie, fog-shrouded town of Darktow was originally established as a sanctuary for sailors traveling to Wildemount from Marquet or Tal'Dorei. The town is now the center of piracy in the Lucidian Ocean.","minZoom":null},{"name":"Talonstadt","lng":25.423516230262873,"lat":4.630043235526204,"type":"town","description":"Settlement · Wildemount · Population 1,810\n\nHome to refugees of the ravenite resistance, the settlement of Talonstadt is not viewed favorably in the eyes of the Crown. Crime, monsters, and the residents themselves trouble the community in this shantytown.","minZoom":null},{"name":"Asarius","lng":27.74910146608995,"lat":4.343601005651657,"type":"city","description":"City · Wildemount · Population 48,025\n\nKnown as the City of Beasts, Asarius is a cluttered sprawl of roughshod homesteads, mud huts, and military fortifications. The city is a cultural hub for the wilder folk of the Kryn Dynasty.","minZoom":null},{"name":"Rosohna","lng":31.589055700167094,"lat":3.7100233602435,"type":"city","description":"City · Wildemount · Population 113,190\n\nBuilt on the remains of Ghor Dranas, Rosohna is the center of the powerful Kryn society. A network of caves and tunnels make up an unseen level of the city beneath the surface.","minZoom":null},{"name":"Tomb of the Worm","lng":16.202392514814502,"lat":18.131547701506467,"type":"town","description":"Settlement · Wildemount · Population 345\n\nA clan of wildfolk found the exposed body of Quajath the Undermaw poking through the wall of an icy cave. The people consumed the exposed meat and found that it regrew. They invite others to partake and are fully under the sway of the Undermaw.","minZoom":null},{"name":"Vurmas","lng":14.651015476528702,"lat":18.6003162086221,"type":"town","description":"Settlement · Wildemount · Population 193\n\nThe floating outpost of Vurmas is made of three sailing ships tied together and is governed by the Kryn Dynasty. The settlement is kept secret and was established to make allies of Eiselcross's wildfolk.","minZoom":null},{"name":"Whitestone","lng":3.65772772774102,"lat":8.679561751338804,"type":"city","description":"City · Tal'Dorei · Population 4,230\n\nFounded by the de Rolo family, the city of Whitestone gets its name from the miraculous mineral that is the city's chief export.","minZoom":null},{"name":"Lyrengorn","lng":-1.81970884114327,"lat":10.962261291939491,"type":"city","description":"City · Tal'Dorei · Population 5,430\n\nMeaning \"mountain city\" in elvish, Lyrengorn is the last bastion of safety before the endless\nice of the Neverfields to the north.","minZoom":null},{"name":"Terrah","lng":-3.903497348715968,"lat":8.7577363931402,"type":"town","description":"Village · Tal'Dorei · Population 673\n\nSheltered within a cauldron-like valley miles deep into the northern mountain range, the village of Terrah is home to the Ashari people that watch over the rift to the Elemental Plane of Earth.","minZoom":null},{"name":"Kraghammer","lng":-3.774943493309229,"lat":6.624437279093294,"type":"city","description":"City · Tal'Dorei · Population 43,550\n\nHeralded as the true living center of dwarven culture\non the continent, the stronghold of Kraghammer is an autonomous city-state built upon rich veins of platinum and mithral.","minZoom":null},{"name":"Jorenn Village","lng":-0.326573182736667,"lat":6.622700064831042,"type":"town","description":"Town · Tal'Dorei · Population 1,873\n\nSilver veins in the nearby rocky hills caused a population boom for the once tiny pioneer town of Jorenn Village.","minZoom":null},{"name":"Westruun","lng":0.264079666429414,"lat":4.075943956367879,"type":"city","description":"City · Tal'Dorei · Population 26,205\n\nThe city of Westruun is the center of Tal’Dorei, a\ncrossroads of culture along the Silvercut Roadway that\nwelcomes adventurers, traders, and vagabonds of all\nkinds.","minZoom":null},{"name":"Turst Fields","lng":2.52766985014531,"lat":5.345847582074956,"type":"town","description":"Town · Tal'Dorei · Population 1,390\n\nThe small farming community of Turst Fields is a hot spot for trade caravans, as it is one of the main sources for food and produce in all of Tal'Dorei.","minZoom":null},{"name":"Drynna","lng":4.719165641977707,"lat":4.194943133332222,"type":"town","description":"Town · Tal'Dorei · Population 2,230\n\nThriving on bountiful wildlife around Mooren Lake, the town of Drynna is responsible for most of the freshwater fish supply in eastern Tal'Dorei.","minZoom":null},{"name":"Zephrah","lng":2.830813738908497,"lat":1.865338807650705,"type":"town","description":"Village · Tal'Dorei · Population 410\n\nAt the top of one of a mountain in the Summit Peaks, Zephrah is the tribal home of the Air Ashari people who keep watch over a gate into the Elemental Plane of Air.","minZoom":null},{"name":"Stilben","lng":3.654253299216511,"lat":-0.122034308366938,"type":"city","description":"City · Tal'Dorei · Population 9,015\n\nKnown as the \"Rotted Lot\" by passing sailors and merchants, Stilben is the largest port city on the eastern coast of Tal'Dorei and is the focal point for all trade to the East.","minZoom":null},{"name":"Kymal","lng":-1.87008805474862,"lat":2.332649444196811,"type":"city","description":"City · Tal'Dorei · Population 7,991\n\nThe city of Kymal stands as the grumbling ghost of a\ngold rush mining center now become a haven for gamblers\nand criminals.","minZoom":null},{"name":"Emon","lng":-7.49981021416559,"lat":3.249458868744747,"type":"city","description":"Metropolis · Tal'Dorei · Population 287,550\n\nEmon is the cultural heart of human civilization on Tal'Dorei and is the nexus of politics, justice, business, industry, and education within the realm.","minZoom":null},{"name":"Emerald Outpost","lng":-5.523449648267057,"lat":0.814324178987533,"type":"town","description":"Town · Tal'Dorei · Population 1,456\n\nOriginally established by the elves of Syngorn as a\nhidden outpost to keep watch over the growing empire\nof Drassig, the Emerald Outpost now stands as a trade post between Emon and Syngorn.","minZoom":null},{"name":"Syngorn","lng":-2.893307255215738,"lat":-1.471849790137657,"type":"city","description":"City · Tal'Dorei · Population 37,030\n\nFounded by the sorceress Yenlara in the wake of the\nDivergence, Syngorn marked the first major point of elven\ncivilization on Tal’Dorei following its calamitous destruction.","minZoom":null},{"name":"Bronbog","lng":0.054745347827915,"lat":-2.441215348474935,"type":"town","description":"Village · Tal'Dorei · Population 740\n\nA shadow of a greater time, Bronbog is now only recognized for its access to the rare swamp fungus, queenscap.","minZoom":null},{"name":"Hdar-Fye","lng":-4.371676592393195,"lat":-9.060001687659563,"type":"city","description":"City · Tal'Dorei\n\nHdar-Fye is the necropolis of Princ Hdar and swears fealty to the Iron Emperor in Tz'Arrm as a entity underneath the Iron Authority.","minZoom":null},{"name":"Ezordam-Haar","lng":-3.089612466850344,"lat":-8.875856975860726,"type":"city","description":"City · Tal'Dorei\n\nKnown as the eyrie of the red pegasi, the city-state of Ezordam-Haar is underneath the Iron Authority.","minZoom":null},{"name":"Tz'Arrm","lng":-2.287019477689372,"lat":-10.779843807290215,"type":"city","description":"City · Tal'Dorei · Population 47,400\n\nRuled by the Iron Emperor, the hobgoblin city of Tz'Arrm is meticulously ordered and hellishly hot.","minZoom":null},{"name":"Rybad-Kol","lng":-1.133509207553267,"lat":-10.10059303074922,"type":"city","description":"City · Tal'Dorei\n\nRybad-Kol, the city of the Forge Lords, is a hobgoblin city under the rule of the Iron Authority.","minZoom":null},{"name":"Ortem-Vellak","lng":0.476019806424307,"lat":-8.233087698827049,"type":"city","description":"City · Tal'Dorei\n\nInside the trunk of a petrified elven tree, the city of Ortem-Vellak is governed under the mighty hobgoblin empire, the Iron Authority.","minZoom":null},{"name":"Byroden","lng":-5.371737924015997,"lat":-4.943335756271547,"type":"town","description":"Town · Tal'Dorei · Population 850\n\nThe northernmost, and second-largest community in the Mornset Countryside, Byroden borders the Gladepools and marks the first stop for any traveler endeavoring to traverse the Rifenmist.","minZoom":null},{"name":"O'Noa","lng":-7.02730319855039,"lat":0.365591294071715,"type":"poi","description":"Ruins · Tal'Dorei · Population 336\n\nDevastated by the Scattered War, O'Noa was once a great colony for the first human visitors of Tal'Dorei. A small community of criminals, addicts, and opportunists have settled in the derelict city of what is now called New O'Noa.","minZoom":null},{"name":"Niirdal-Poc","lng":-4.052684923376876,"lat":-6.815717982743069,"type":"city","description":"City · Tal'Dorei · Population 15,000\n\nFounded as the capital of the Qoniira Tetrarchy long before the Calamity, the city of Niirdal-Poc lies hidden in the depths of the Rifenmist Jungle.","minZoom":null},{"name":"Sepesca","lng":10.583292176051156,"lat":5.649984818903119,"type":"poi","description":"Point of Interest (Ruins) · Wildemount\n\nEstablished after the Calamity, Sepesca—meaning \"Nature's End\" to the Ki'Nau people—was established as a holy burial temple dedicated to the Wild Mother. The area was raided by goblins and the temple fell into ruin.","minZoom":7},{"name":"The Wuyun Gate","lng":21.40296276081254,"lat":0.165393285650819,"type":"poi","description":"Point of Interest (Landmark) · Wildemount\n\nStanding roughly twenty feet tall and fifteen feet wide, the Wuyun Gate opens for travelers granted passage to enter or exit the Dwendalian Empire.","minZoom":7},{"name":"Herethis Mines","lng":19.804215431281495,"lat":3.729637621464081,"type":"poi","description":"Point of Interest (Landmark) · Wildemount\n\nA bountiful vein of precious platinum lead to the construction of the vast Herethis Mines.","minZoom":7},{"name":"Deepriver Mine","lng":30.714555714129798,"lat":4.121182685037788,"type":"poi","description":"Point of Interest (Landmark) · Wildemount\n\nEstablished around a plentiful source of iron and copper within a dry, subterranean riverbed, the Deepriver Mine is one of the Kryn Dynasty's most productive mining operations.","minZoom":7},{"name":"Ghor Veles","lng":33.36433138066944,"lat":5.432007463091602,"type":"poi","description":"Point of Interest (Landmark) · Wildemount\n\nMeaning \"Vault of Shadows,\" Ghor Veles hides a vast dungeon beneath its ruins.","minZoom":7},{"name":"Olc Skerry","lng":33.0608654523792,"lat":8.41855629395513,"type":"poi","description":"Point of Interest (Landmark) · Wildemount\n\nLegends say the people of Olc Skerry were either slaughtered by outlanders or claimed by contagion. Sages suggest the inhabitants journeyed into the mainlands. Either way, explorers return from Olc Skerry with legends of pernicious phantoms.","minZoom":7},{"name":"Blooming Grove","lng":24.133045874227047,"lat":10.516912163963955,"type":"poi","description":"Point of Interest (Landmark) · Wildemount\n\nDeep in the Savalirwood, the centuries-old Blooming Grove hosts a small temple that has held back the curse that darkens the forest.","minZoom":7},{"name":"Molaesmyr","lng":24.406905370489277,"lat":11.977989584563186,"type":"poi","description":"Point of Interest (Ruins) · Wildemount\n\nOnce a metropolis filled with erudite scholars and beautiful elven architecture, the city of Molaesmyr lies in ruin under a perpetual fog.","minZoom":7},{"name":"Uraliss","lng":27.656134185517484,"lat":13.454718322094187,"type":"poi","description":"Point of Interest (Landmark) · Wildemount\n\nThe small town of Uraliss was Uthodurn's first attempt to expand beyond its mountain halls. However, the settlement was beset by orcs and was quickly abandoned.","minZoom":7},{"name":"Cinderrest Sanctum","lng":27.001832037690775,"lat":14.795889692978593,"type":"poi","description":"Point of Interest (Landmark) · Wildemount\n\nHidden along the eastern slopes of Kravaraad is a cavern of onyx, where a pool of uncooling lava sits at the heart of the black stone grotto. Black iron adornments and supports honor the legend of Melora granting stone and ore to Moradin the All-Hammer.","minZoom":7},{"name":"Kravaraad","lng":26.445231115557714,"lat":15.066295105504194,"type":"poi","description":"Point of Interest (Landmark) · Wildemount\n\nThe volcano of Kravaraad looms in defiance against the frost and cold of the Greying Wildlands.","minZoom":7},{"name":"Mutalos","lng":17.852457659861486,"lat":19.539826984988576,"type":"poi","description":"Point of Interest (Landmark) · Wildemount\n\nAt the dawn of every day, the enivonment of Mutalos suddently changes, shifting from desert to forest to mountainous to swamp without any discernible pattern. The region is avoided by the local wildfolk at all costs.","minZoom":7},{"name":"Fortress of the Dead Jarl","lng":18.92618426142319,"lat":19.373044084562157,"type":"poi","description":"Point of Interest (Landmark) · Wildemount\n\nFrom the outside, the Fortress of the Dead Jarl is an enormous fairy-tale castle made of ice. Inside the castle holds horrors of an entirely different story...","minZoom":7},{"name":"Aeor Crash Site","lng":18.753480074591106,"lat":18.650647143070287,"type":"poi","description":"Point of Interest (Landmark) · Wildemount\n\nWhile pieces of Aeor were thrown all over Eiselcross, the city's main crash initially created a three-mile-diameter crater in the center of Foren.","minZoom":7},{"name":"Shattengrod","lng":19.043623108469024,"lat":7.132758202972485,"type":"poi","description":"Point of Interest (Ruins) · Wildemount\n\nThe giant sinkhole that once was Shattengrod has been excavated heavily, leaving the pit as a spiraling subterranean city with broken relics and forgotten secrets.","minZoom":7},{"name":"The Pallid Grove","lng":12.573630829205785,"lat":7.691332887240799,"type":"poi","description":"Point of Interest (Landmark) · Wildemount\n\nOnce a beautiful, untouched woodland, the Pallid Grove was home to reclusive elves and protected by illusory magic. During the Calamity, the forest was drained of life and transformed into the spectral valley it is today.","minZoom":7},{"name":"Draconia","lng":26.419572207799675,"lat":-0.987299221337637,"type":"poi","description":"Point of Interest (Ruins) · Wildemount\n\nThe once-proud nation of Draconia lies in ruins at the bottom of the Dreemoth Ravine. Originally the home of dragonborn society in Wildemount, Draconia was attacked by the Chroma Conclave, sundering the floating islands and killing many inhabitants.","minZoom":7},{"name":"The Miskath Pit","lng":32.310265300372436,"lat":0.086427380223862,"type":"poi","description":"Point of Interest (Landmark) · Wildemount\n\nAn arcane sinkhole of unknown depth and origin, the Miskath Pit is filled with psychedlic sights and sounds that madden and derange the few surviving explorers.","minZoom":7},{"name":"Incanter's Rest","lng":32.510602157098305,"lat":1.969396457225364,"type":"poi","description":"Point of Interest (Landmark) · Wildemount\n\nThe Calamity-era battlefield of Incanter's Rest is now a massive graveyard haunted by the undead spirts of unnameable horrors. There are few landmarks apart from the gigantic skeletal remains of three monstrous titans.","minZoom":7},{"name":"Dumaran","lng":30.452461690594944,"lat":2.219570807866027,"type":"poi","description":"Point of Interest (Landmark) · Wildemount\n\nThe fortress of Dumaran is home to hobgoblin survivors of the Calamity. Empowered by the Spider Queen that lured them to Dumaran, the hobgoblins plan to seek punishment for the Kryn for their insolence.","minZoom":7},{"name":"Mythburrow","lng":30.711517970843232,"lat":15.320910420948222,"type":"poi","description":"Point of Interest (Landmark) · Wildemount\n\nLocals tell stories of a monstrous, ancient being that lives in the Mythburrow. Tales of a bellowing roar that shakes the valley and sightings of an immense white-scaled dragon have been told for centuries.","minZoom":7},{"name":"Vergesson Sanatorium","lng":22.31118632333189,"lat":10.640626957798817,"type":"poi","description":"Point of Interest (Landmark) · Wildemount\n\nOnce a vast prison known as the Archevault, the Vergesson Sanitorium is run by the crown and treats patients of physical and mental ailments. However, the pleasant mansions hides much darker secrets.","minZoom":7},{"name":"Rastum Den","lng":21.026267173301257,"lat":10.269559676376758,"type":"poi","description":"Point of Interest (Landmark) · Wildemount\n\nThe moderately sized encampment of Rastum Den is nestled in a small valley elevated in the mountains. The area's dizzying heights and tumultuous weather make it all but inaccessible to those without a griffon rider's prowess.","minZoom":7},{"name":"Diver's Grave","lng":9.453105183409019,"lat":-1.555071945556393,"type":"poi","description":"Point of Interest (Landmark) · Wildemount\n\nDeep beneath the waves of the open Lucidian Ocean lies a terrifying graveyard of wrecked ships across the ocean floor. Each salvage ship that tries to reclaim cargo from the Diver's Grave only adds another corpse to its hungry sands.","minZoom":7},{"name":"Fort Daxio","lng":-5.986417249157531,"lat":7.215090128259374,"type":"poi","description":"Point of Interest (Landmark) · Tal'Dorei\n\nNestled within the Othendin Pass, Fort Daxio is a massive\nstronghold and series of military structures under\nthe rule of the Tal’Dorei Council that trains and holds\nthe bulk of the mobile army of Emon.","minZoom":7},{"name":"Serpent's Head","lng":-4.449711408319094,"lat":5.055201429019898,"type":"poi","description":"Point of Interest (Landmark) · Tal'Dorei\n\nSurrounded by ruins left by the Cinder King, Serpent's Head is a squat mountain in the southern reaches of the Cliffkeep Mountains.","minZoom":7},{"name":"The Pools of Wittebak","lng":-3.323127903035202,"lat":7.950269141518937,"type":"poi","description":"Point of Interest (Landmark) · Tal'Dorei\n\nA once peaceful city occupied by thousands of rock gnomes, The Pools of Wittebak harbor now harbor hill giants and the sea hag, Mauvlettir in the dark and toxic caverns beneath the pools.","minZoom":7},{"name":"Murdoon Mines","lng":-0.461094407140111,"lat":4.200111953705381,"type":"poi","description":"Point of Interest (Landmark) · Tal'Dorei\n\nAn iron-rich mine at the base of the Cliffkeep Mountains.","minZoom":7},{"name":"Gatshadow","lng":-0.422414243902133,"lat":4.510584730628991,"type":"poi","description":"Point of Interest (Landmark) · Tal'Dorei\n\nThe monolithic mountain of Gatshadow stands unnaturally tall against the surrounding mountains. It was transformed into a place of evil as the seat of power for a priest of the Betrayer God.","minZoom":7},{"name":"Shadebarrow","lng":1.264420888913089,"lat":3.784429132774447,"type":"poi","description":"Point of Interest (Landmark) · Tal'Dorei\n\nOnce a monolithic henge used as a ritual site for the hierophant druids, the Shadebarrow is now a forgotten crypt from where treasure hunters and historians seldom return.","minZoom":7},{"name":"Silvercut Crossroads","lng":-2.093885887318966,"lat":3.137723947409452,"type":"poi","description":"Point of Interest (Landmark) · Tal'Dorei\n\nMarked by the crossing point between the Silvercut Roadway\nand the Wildwood Byway, the Silvercut Crossroads\nis a strange and solemn stop along those paths.","minZoom":7},{"name":"Throne of the Archeart","lng":-3.188059487405555,"lat":2.82374959781377,"type":"poi","description":"Point of Interest (Landmark) · Tal'Dorei\n\nIn the foothills of the Ironseat Ridge is a small rise known\nas the Throne of the Archeart: a gathering place for the\nmany nomadic centaur tribes that ride across the Dividing\nPlains.","minZoom":7},{"name":"Torthil","lng":-3.052556768188679,"lat":1.875230563295635,"type":"poi","description":"Point of Interest (Ruins) · Tal'Dorei\n\nNow just a scarred patch of land, Torthil played an important role in the Scattered War, harboring the ambush that led to the death of King Warren Drassig.","minZoom":7},{"name":"The Shifting Keep","lng":-4.242548597208687,"lat":-1.673029744402702,"type":"poi","description":"Point of Interest (Landmark) · Tal'Dorei\n\nBuilt within and around a cluster of massive, living trees that form the heart of the Expanse, the Shifting Keep acts as the satellite military compound for the Syngornian scouts and rangers that patrol and defend the surrounding forest.","minZoom":7},{"name":"Tormor Falls","lng":-2.938769228333478,"lat":-1.974436433942806,"type":"poi","description":"Point of Interest (Landmark) · Tal'Dorei\n\nFeeding the mouth of the rushing Feshun River that\ncarves through the body of the Expanse, Tormor Falls is an incredible multi-level series of waterfalls that cascade\ndown the eastern side of Orencleft Mountain for hundreds\nof feet.","minZoom":7},{"name":"The Mirescar","lng":-4.053192233174841,"lat":-2.820459821873817,"type":"poi","description":"Point of Interest (Landmark) · Tal'Dorei\n\nSurrounded by myths in Syngornian folklore, the Mirescar is an extremely dense and seemingly corrupted forest that allows nearly no\nsunlight to enter.","minZoom":7},{"name":"Wrettis","lng":-0.825447972854888,"lat":-3.405901057464678,"type":"poi","description":"Point of Interest (Landmark) · Tal'Dorei\n\nA relic of the Age of Arcanum, Wrettis is the ruined\ntower of a powerful mage driven mad by the seductive\nwhispers of beings from the beyond.","minZoom":7},{"name":"The Ashen Gorge","lng":0.489623289288393,"lat":-1.92058278912584,"type":"poi","description":"Point of Interest (Landmark) · Tal'Dorei\n\nOnce home to Thordak, the Cinder King, the Ashen Gorge (otherwise known as the Dragon's Throne) stands tall with blazing twin peaks as a site of supernatural power.","minZoom":7},{"name":"Cavern of Axiom","lng":-1.07734405345036,"lat":-1.24480640739039,"type":"poi","description":"Point of Interest (Landmark) · Tal'Dorei\n\nThe Cavern of Axiom is a lost shrine to the Knowing\nMistress spoken of only in riddles. Hidden by ever-shifting\nillusions, the entrance to this cavern opens only to\nthose who are expected by fate.","minZoom":7},{"name":"Scar of the Cinder King","lng":-7.206503434519004,"lat":3.207741951097073,"type":"poi","description":"Point of Interest (Landmark) · Tal'Dorei\n\nCorrupted by the destruction done by Thordak, this area east of Emon radiates an invisible power.","minZoom":7},{"name":"The Emerald Gulch","lng":29.8781817193383,"lat":8.74418849622423,"type":"region","description":"Region — Waters · Wildemount","minZoom":5},{"name":"The Frigid Depths","lng":10.806593530845051,"lat":11.727745609011851,"type":"region","description":"Region — Waters · Wildemount","minZoom":5},{"name":"Torrid Reef","lng":9.854364857493211,"lat":2.804151350268481,"type":"region","description":"Region — Waters · Wildemount","minZoom":5},{"name":"Mother's Sigh Reef","lng":16.728978374477293,"lat":0.104044749282482,"type":"region","description":"Region — Waters · Wildemount","minZoom":5},{"name":"Dragshallow Reefs","lng":9.268157503331778,"lat":-4.538243792763617,"type":"region","description":"Region — Waters · Wildemount","minZoom":5},{"name":"Lucidian Ocean","lng":7.444142026694808,"lat":-1.2315196332091243,"type":"region","description":"Region — Waters · Wildemount","minZoom":5},{"name":"Deep Row Reef","lng":12.809086773923065,"lat":-4.585614084008985,"type":"region","description":"Region — Waters · Wildemount","minZoom":5},{"name":"Southern Gate Reef","lng":15.035490462455376,"lat":-6.113305976672112,"type":"region","description":"Region — Waters · Wildemount","minZoom":5},{"name":"Inkclaw Reef","lng":20.246222499445903,"lat":-5.37906646236888,"type":"region","description":"Region — Waters · Wildemount","minZoom":5},{"name":"Ashkeeper Peaks","lng":24.88962128269284,"lat":0.746596844397931,"type":"region","description":"Region — Mountains · Wildemount","minZoom":5},{"name":"Penumbra Range","lng":31.802815681414202,"lat":3.030501775134207,"type":"region","description":"Region — Mountains · Wildemount","minZoom":5},{"name":"Vermaloc Wildwood","lng":29.80132835619701,"lat":3.948532468263655,"type":"region","description":"Region — Forest · Wildemount","minZoom":5},{"name":"The Brokenveil Marsh","lng":27.070135001581473,"lat":5.827060580463423,"type":"region","description":"Region — Swamp · Wildemount","minZoom":5},{"name":"Lotusden Greenwood","lng":27.689649591774266,"lat":-1.000922806075524,"type":"region","description":"Region — Forest · Wildemount","minZoom":5},{"name":"Whitedawn Lagoon","lng":25.058377945254524,"lat":-2.95938828475122,"type":"region","description":"Region — Waters · Wildemount","minZoom":5},{"name":"Quoraska Jungle","lng":22.057395978780423,"lat":-2.259936328081433,"type":"region","description":"Region — Forest · Wildemount","minZoom":5},{"name":"Cyrios End Forest","lng":19.919071425532522,"lat":-0.268163613373891,"type":"region","description":"Region — Forest · Wildemount","minZoom":5},{"name":"Plumgroves","lng":18.213740940699285,"lat":0.551194393010827,"type":"region","description":"Region — Forest · Wildemount","minZoom":5},{"name":"Cyrengreen Forest","lng":20.32541970512169,"lat":2.389753821971648,"type":"region","description":"Region — Forest · Wildemount","minZoom":5},{"name":"Cyrios Mountains","lng":18.329067245459747,"lat":3.0544413510332484,"type":"region","description":"Region — Mountains · Wildemount","minZoom":5},{"name":"Pearlbow Wilderness","lng":20.898304164870396,"lat":9.870559034736258,"type":"region","description":"Region — Forest · Wildemount","minZoom":5},{"name":"Savalirwood","lng":24.11578316555189,"lat":11.6957955692844,"type":"region","description":"Region — Forest · Wildemount","minZoom":5},{"name":"Rime Plains","lng":28.87538719451005,"lat":13.39446460691153,"type":"region","description":"Region — Snowlands · Wildemount","minZoom":5},{"name":"Crystalsands Tundra","lng":24.328949476155955,"lat":15.486159029714527,"type":"region","description":"Region — Snowlands · Wildemount","minZoom":5},{"name":"Dunrock Mountains","lng":25.987649830544743,"lat":9.850574693117181,"type":"region","description":"Region — Mountains · Wildemount","minZoom":5},{"name":"Silberquel Ridge","lng":22.63694188573558,"lat":7.499083829264991,"type":"region","description":"Region — Mountains · Wildemount","minZoom":5},{"name":"Marrow Valley","lng":23.801862465951245,"lat":5.912687933095632,"type":"region","description":"Region — Landmark · Wildemount","minZoom":5},{"name":"Ounterloch","lng":22.631113119429973,"lat":6.297108948963804,"type":"region","description":"Region — Waters · Wildemount","minZoom":5},{"name":"Lebenda Swamp","lng":22.81763364120862,"lat":6.695130419545009,"type":"region","description":"Region — Swamp · Wildemount","minZoom":5},{"name":"Zemni Fields","lng":19.300389516240024,"lat":7.229711557857023,"type":"region","description":"Region — Landmark · Wildemount","minZoom":5},{"name":"Velvin Thicket","lng":16.599172674052987,"lat":7.935824961733302,"type":"region","description":"Region — Forest · Wildemount","minZoom":5},{"name":"Saltwallow Bog","lng":16.519235307576437,"lat":8.542016657513871,"type":"region","description":"Region — Swamp · Wildemount","minZoom":5},{"name":"The Barren Shores","lng":11.403243853076706,"lat":9.07493243402426,"type":"region","description":"Region — Waters · Wildemount","minZoom":5},{"name":"Stonecage Cliffs","lng":7.088291425144139,"lat":9.627832552153787,"type":"region","description":"Region — Landmark · Wildemount","minZoom":5},{"name":"Lushgut Forest","lng":9.23327742559847,"lat":6.473637299932925,"type":"region","description":"Region — Forest · Wildemount","minZoom":5},{"name":"Doralle Woods","lng":11.684689997546247,"lat":6.283786054551096,"type":"region","description":"Region — Forest · Wildemount","minZoom":5},{"name":"Copia Wildwood","lng":14.649034004385287,"lat":3.552592699935355,"type":"region","description":"Region — Forest · Wildemount","minZoom":5},{"name":"Hearthstar Peaks","lng":13.483280743268786,"lat":1.720694718180897,"type":"region","description":"Region — Mountains · Wildemount","minZoom":5},{"name":"Vezdaweald","lng":13.989550730953674,"lat":1.394283805068284,"type":"region","description":"Region — Forest · Wildemount","minZoom":5},{"name":"Raska Lake","lng":20.564399123650574,"lat":-2.855719512602037,"type":"region","description":"Region — Waters · Wildemount","minZoom":5},{"name":"Gehem Basin","lng":24.408054161731656,"lat":1.00791986709821,"type":"region","description":"Region — Waters · Wildemount","minZoom":5},{"name":"Ustaloch","lng":22.28305250289656,"lat":2.047105631293474,"type":"region","description":"Region — Waters · Wildemount","minZoom":5},{"name":"Fevergulf Lake","lng":28.358292355114536,"lat":0.974612631066159,"type":"region","description":"Region — Waters · Wildemount","minZoom":5},{"name":"Sorrowseep Waters","lng":27.419028299015306,"lat":2.94640100415446,"type":"region","description":"Region — Waters · Wildemount","minZoom":5},{"name":"Erdeloch","lng":20.444493073935778,"lat":9.128224011675297,"type":"region","description":"Region — Waters · Wildemount","minZoom":5},{"name":"Kaltenloch","lng":17.939788924336934,"lat":9.474619266407055,"type":"region","description":"Region — Waters · Wildemount","minZoom":5},{"name":"Far Hharom","lng":34.03384537495383,"lat":8.968349278724144,"type":"region","description":"Region — Landmark · Wildemount","minZoom":5},{"name":"Ebonglass Massif","lng":34.45351654895753,"lat":7.256357346682042,"type":"region","description":"Region — Mountains · Wildemount","minZoom":5},{"name":"Tooth of Zehir","lng":35.86574335671026,"lat":4.818267669138594,"type":"region","description":"Region — Ashlands · Wildemount","minZoom":5},{"name":"Daggerbay","lng":-7.793712732979703,"lat":-0.141491057772471,"type":"region","description":"Region — Waters · Tal'Dorei","minZoom":5},{"name":"Ozmit Sea","lng":-9.342870733311216,"lat":1.4286015101310854,"type":"region","description":"Region — Waters · Tal'Dorei","minZoom":5},{"name":"Visa Isle","lng":-8.438032201586047,"lat":-2.781572634914011,"type":"region","description":"Region — Forest · Tal'Dorei","minZoom":5},{"name":"Owlset Bay","lng":2.489424393845463,"lat":-1.08897407899626,"type":"region","description":"Region — Waters · Tal'Dorei","minZoom":5},{"name":"Ivyheart Thicket","lng":-3.418775787599036,"lat":2.260556732531328,"type":"region","description":"Region — Forest · Tal'Dorei","minZoom":5},{"name":"Torian Forest","lng":-4.200332976955475,"lat":4.564909874165585,"type":"region","description":"Region — Forest · Tal'Dorei","minZoom":5},{"name":"The Neverfields","lng":-1.41991226164577,"lat":11.639243004808595,"type":"region","description":"Region — Snowlands · Tal'Dorei","minZoom":5},{"name":"The Grey Valley","lng":-1.219870838179538,"lat":8.364146211314939,"type":"region","description":"Region — Region · Tal'Dorei","minZoom":5},{"name":"Mooren Lake","lng":5.069803685688936,"lat":3.977191273439217,"type":"region","description":"Region — Waters · Tal'Dorei","minZoom":5},{"name":"Rootgarden Marsh","lng":5.710246382522678,"lat":4.433099633897143,"type":"region","description":"Region — Swamp · Tal'Dorei","minZoom":5},{"name":"Dawnmist Pines","lng":1.698562952234777,"lat":5.881461568141019,"type":"region","description":"Region — Forest · Tal'Dorei","minZoom":5},{"name":"K'Tawl Swamp","lng":3.638499547244511,"lat":0.985874173700002,"type":"region","description":"Region — Swamp · Tal'Dorei","minZoom":5},{"name":"The Frostweald","lng":-0.870961378645412,"lat":-0.468690595380034,"type":"region","description":"Region — Forest · Tal'Dorei","minZoom":5},{"name":"Kirmont Bay","lng":1.203886874050851,"lat":-3.714323923401903,"type":"region","description":"Region — Waters · Tal'Dorei","minZoom":5},{"name":"Vues'dal Waters","lng":-2.448032135739648,"lat":-3.069229100441035,"type":"region","description":"Region — Waters · Tal'Dorei","minZoom":5},{"name":"K'Tawl Bay","lng":4.2882464963325,"lat":0.717601567035988,"type":"region","description":"Region — Waters · Tal'Dorei","minZoom":5},{"name":"Foramere Basin","lng":-0.197953798921814,"lat":1.14714787944022,"type":"region","description":"Region — Waters · Tal'Dorei","minZoom":5},{"name":"Rifenmist Jungle","lng":-1.65717069412897,"lat":-6.4311655816409505,"type":"region","description":"Region — Forest · Tal'Dorei","minZoom":5},{"name":"Verdant Expanse","lng":-4.538387475526311,"lat":-2.318686085265411,"type":"region","description":"Region — Forest · Tal'Dorei","minZoom":5},{"name":"Daggerbay Mountains","lng":-5.735534598905621,"lat":0.032188317640062,"type":"region","description":"Region — Mountains · Tal'Dorei","minZoom":5},{"name":"Stormcrest Mountains","lng":-1.250885012360347,"lat":-1.602258661688679,"type":"region","description":"Region — Mountains · Tal'Dorei","minZoom":5},{"name":"Stormpoint Mountains","lng":-1.257087847196504,"lat":-4.610633557227343,"type":"region","description":"Region — Mountains · Tal'Dorei","minZoom":5},{"name":"Cliffkeep Mountains","lng":-2.9194475832879707,"lat":8.026608615647111,"type":"region","description":"Region — Mountains · Tal'Dorei","minZoom":5},{"name":"Umbra Hills","lng":-0.343720417571615,"lat":6.987116877686931,"type":"region","description":"Region — Region · Tal'Dorei","minZoom":5},{"name":"Wildwood","lng":-2.224730081637809,"lat":6.270689454110197,"type":"region","description":"Region — Forest · Tal'Dorei","minZoom":5},{"name":"Wildwood Valley","lng":-2.178208820366597,"lat":4.924674294663002,"type":"region","description":"Region — Landmark · Tal'Dorei","minZoom":5},{"name":"The Dividing Plain","lng":-1.080307054365897,"lat":1.84806821592655,"type":"region","description":"Region — Landmark · Tal'Dorei","minZoom":5},{"name":"The Dividing Plains","lng":-0.8445993305917274,"lat":2.040356095847579,"type":"region","description":"Region — Landmark · Tal'Dorei","minZoom":5},{"name":"Mornset Countryside","lng":-3.952219583508984,"lat":-5.558116578451117,"type":"region","description":"Region — Landmark · Tal'Dorei","minZoom":5},{"name":"The Gladepools","lng":-4.730675355447343,"lat":-4.271028349947461,"type":"region","description":"Region — Waters · Tal'Dorei","minZoom":5},{"name":"Parchwood Timberlands","lng":4.8930228928583155,"lat":6.252080949601713,"type":"region","description":"Region — Forest · Tal'Dorei","minZoom":5},{"name":"Seashale Mountains","lng":-8.667924767701303,"lat":4.57576483512888,"type":"region","description":"Region — Mountains · Tal'Dorei","minZoom":5},{"name":"Ironseat Ridge","lng":-2.615508676316037,"lat":2.888593759692764,"type":"region","description":"Region — Mountains · Tal'Dorei","minZoom":5},{"name":"Othendin Pass","lng":-6.577569427914645,"lat":6.224168192838989,"type":"region","description":"Region — Landmark · Tal'Dorei","minZoom":5}]